{
  "version": "1.0",
  "lastUpdated": "2026-04-13",
  "camps": [
    {"id": 1, "name": "NatureGrace阳朔·遇龙湾国际营地", "lon": 110.522282, "lat": 24.743047, "x": 1683.94, "y": 3606.23, "address": "广西壮族自治区桂林市阳朔县321国道与827县道交叉口西北500米", "type": "国际营地", "price": "260元起", "rating": "3.7", "description": "类型：国际营地 | 价格：260元起 | 营业时间：09:00-24:00 | 评分：3.7 | 活动：帐篷露营, 房车露营, 遇龙河漂流, 骑行, 团建活动, 亲子活动 | 设施：帐篷区, 房车营位, 卫生间, 淋浴间, 停车场 | 提示：营业时间09:00-24:00, 建议提前预约, 提供帐篷租赁服务, 周边有遇龙河景区可游玩", "folder": "桂林市/阳朔县"},
    {"id": 2, "name": "贝格凯姆阳朔房车露营公园", "lon": 110.515704, "lat": 24.740645, "x": 1673.44, "y": 3610.62, "address": "广西壮族自治区桂林市阳朔县桂梧公路燕村1号", "type": "房车营地", "price": "300元起", "rating": "5.0", "description": "类型：房车营地 | 价格：300元起 | 营业时间：08:00-24:00 | 活动：房车露营, 帐篷露营, 户外烧烤, 亲子活动, 摄影采风 | 设施：房车营位, 帐篷区, 水电供应, 卫生间, 淋浴间, 停车场 | 提示：营业时间08:00-24:00, 提供水电供应, 适合房车过夜, 周边有十里画廊景区", "folder": "桂林市/阳朔县"},
    {"id": 3, "name": "圣地漓江野奢营地", "lon": 110.553351, "lat": 24.779482, "x": 1732.86, "y": 3542.32, "address": "广西壮族自治区桂林市阳朔县五达莲度假村西侧200米", "type": "野奢营地", "price": "350元起", "rating": "", "description": "类型：野奢营地 | 价格：350元起 | 营业时间：全天 | 活动：野奢露营, 漓江观景, 日出日落观赏, 户外餐饮, 摄影采风 | 设施：豪华帐篷, 野奢营位, 餐饮服务, 卫生间, 停车场 | 提示：高端定位，建议提前预约, 提供豪华帐篷住宿, 可欣赏漓江美景, 适合情侣和家庭度假", "folder": "桂林市/阳朔县"},
    {"id": 4, "name": "真宝鼎1666国际营地", "lon": 110.833168, "lat": 26.158595, "x": 2146.27, "y": 1156.45, "address": "广西壮族自治区桂林市资源县梅溪镇真宝鼎", "type": "高山营地", "price": "收费营地", "rating": "", "description": "类型：高山营地 | 价格：收费营地 | 营业时间：00:00-24:00 | 活动：高山露营, 观日出, 观星, 徒步, 溯溪, 篝火晚会, 云海观赏 | 设施：帐篷区, 卫生间, 停车场, 自来水, 篝火区 | 提示：海拔1666米，注意防寒保暖, 可明火篝火, 24小时开放, 适合户外爱好者和摄影爱好者, 建议自备饮用水和食物", "folder": "桂林市/资源县"},
    {"id": 5, "name": "龙脊景区自驾车营地", "lon": 110.168538, "lat": 25.81032, "x": 1088.47, "y": 1781.11, "address": "桂林市龙胜各族自治县552乡道321国道路口附近龙脊梯田风景名胜区内", "type": "自驾车营地", "price": "景区门票+营地费", "rating": "", "description": "类型：自驾车营地 | 价格：景区门票+营地费 | 营业时间：全天 | 活动：自驾露营, 梯田观光, 日出日落观赏, 摄影采风, 少数民族文化体验, 徒步梯田 | 设施：自驾车营位, 停车场, 卫生间, 观景台 | 提示：需购买景区门票, 可欣赏梯田日出日落, 周边有壮族、瑶族村寨, 建议自驾前往, 春秋季节风景最佳", "folder": "桂林市/龙胜各族自治县"},
    {"id": 6, "name": "阳朔房车营地", "lon": 110.508395, "lat": 24.781107, "x": 1660.66, "y": 3541.2, "address": "桂林市阳朔县江东路泊缘精品民宿西南侧", "type": "房车营地", "price": "价格面议", "rating": "", "description": "类型：房车营地 | 价格：价格面议 | 营业时间：全天 | 电话：15878366430 | 活动：房车露营, 阳朔古镇游览, 西街夜游, 漓江漂流, 骑行 | 设施：房车营位, 水电供应, 卫生间, 停车场 | 提示：地理位置优越，靠近阳朔县城, 提供水电供应, 可步行至西街, 适合房车过夜", "folder": "桂林市/阳朔县"},
    {"id": 7, "name": "三木房车酒店露营基地", "lon": 110.506673, "lat": 24.798709, "x": 1657.44, "y": 3510.94, "address": "广西壮族自治区桂林市阳朔县桂林阳朔止止茅舍客栈西北50米", "type": "房车酒店", "price": "价格面议", "rating": "", "description": "类型：房车酒店 | 价格：价格面议 | 营业时间：全天 | 活动：房车酒店住宿, 帐篷露营, 户外烧烤, 阳朔风光游览 | 设施：房车住宿, 帐篷区, 卫生间, 停车场 | 提示：提供房车酒店住宿, 独特的住宿体验, 适合家庭和情侣, 周边风景优美", "folder": "桂林市/阳朔县"},
    {"id": 8, "name": "桂林在水一汸汽车旅游营地", "lon": 110.081086, "lat": 25.532476, "x": 955.3, "y": 2262.94, "address": "广西壮族自治区桂林市临桂区桂三高速鸡笼山林场宛田造林站东20米", "type": "汽车营地", "price": "价格面议", "rating": "", "description": "类型：汽车营地 | 价格：价格面议 | 营业时间：全天 | 电话：(0773)3568107 | 活动：汽车露营, 帐篷露营, 森林徒步, 自然观光, 户外烧烤 | 设施：汽车营位, 帐篷区, 卫生间, 停车场 | 提示：周边自然环境优美, 适合自驾游, 设施完善, 可过夜露营", "folder": "桂林市/临桂区"},
    {"id": 9, "name": "灵川暮野星空露营地", "lon": 110.389298, "lat": 25.507007, "x": 1450.68, "y": 2295.32, "address": "广西壮族自治区桂林市灵川县三街镇", "type": "星空营地", "price": "价格面议", "rating": "", "description": "类型：星空营地 | 价格：价格面议 | 营业时间：全天 | 活动：星空观测, 天文摄影, 帐篷露营, 日出观赏, 自然风光摄影 | 设施：帐篷区, 观星平台, 卫生间, 停车场 | 提示：远离城市光污染，观星绝佳, 建议带保暖衣物, 适合天文爱好者, 凌晨观星最佳", "folder": "桂林市/灵川县"},
    {"id": 10, "name": "灵川逍遥湖房车营地", "lon": 110.461333, "lat": 25.131535, "x": 1576.04, "y": 2939.36, "address": "广西壮族自治区桂林市灵川县逍遥湖景区大门左侧", "type": "房车营地", "price": "景区门票+营地费", "rating": "", "description": "类型：房车营地 | 价格：景区门票+营地费 | 营业时间：景区营业时间 | 活动：房车露营, 逍遥湖游览, 湖边垂钓, 徒步登山, 摄影采风 | 设施：房车营位, 帐篷区, 卫生间, 停车场 | 提示：需购买景区门票, 依山傍水环境优美, 可游览逍遥湖景区, 适合家庭出游", "folder": "桂林市/灵川县"},
    {"id": 11, "name": "绿野仙踪义江营地", "lon": 110.025329, "lat": 25.27067, "x": 872.58, "y": 2715.96, "address": "广西壮族自治区桂林市临桂区115乡道", "type": "综合营地", "price": "价格面议", "rating": "", "description": "类型：综合营地 | 价格：价格面议 | 营业时间：全天 | 电话：15380773112 | 活动：帐篷露营, 户外烧烤, 江边垂钓, 亲子活动, 休闲度假 | 设施：帐篷区, 烧烤区, 垂钓区, 卫生间, 停车场 | 提示：义江边环境清幽, 可进行烧烤和垂钓, 适合周末短途出游, 距离市区较近", "folder": "桂林市/临桂区"},
    {"id": 12, "name": "桂林悦野悦宿露营地", "lon": 110.498064, "lat": 24.749158, "x": 1644.9, "y": 3596.61, "address": "桂林市阳朔县阳朔镇九里花海抗战路291号", "type": "综合营地", "price": "价格面议", "rating": "", "description": "类型：综合营地 | 价格：价格面议 | 营业时间：全天 | 电话：18078393967 | 活动：花海观光, 帐篷露营, 房车露营, 亲子活动, 摄影采风 | 设施：帐篷区, 房车营位, 卫生间, 停车场 | 提示：周边花海环绕, 提供多种住宿选择, 适合家庭出游, 花季风景最佳", "folder": "桂林市/阳朔县"},
    {"id": 13, "name": "漓水夜色露营地", "lon": 110.352332, "lat": 25.212882, "x": 1398.97, "y": 2803.31, "address": "桂林市雁山区漓江景区", "type": "江边营地", "price": "价格面议", "rating": "", "description": "类型：江边营地 | 价格：价格面议 | 营业时间：全天 | 电话：19997933665 | 活动：漓江观景, 帐篷露营, 日出日落观赏, 江边烧烤, 摄影采风 | 设施：帐篷区, 观景台, 卫生间, 停车场 | 提示：紧邻漓江，可欣赏夜景, 日出日落绝佳位置, 可进行江边烧烤, 适合摄影爱好者", "folder": "桂林市/雁山区"},
    {"id": 14, "name": "龙门石灰洲露营基地", "lon": 110.360664, "lat": 25.206529, "x": 1412.51, "y": 2813.94, "address": "桂林市雁山区漓江景区龙门石灰洲", "type": "江边营地", "price": "价格面议", "rating": "", "description": "类型：江边营地 | 价格：价格面议 | 营业时间：全天 | 活动：沙滩露营, 漓江玩水, 团体团建, 水上活动, 沙滩烧烤 | 设施：帐篷区, 沙滩区, 卫生间, 停车场 | 提示：漓江沙滩开阔, 适合团体露营, 可进行水上活动, 沙滩烧烤体验佳", "folder": "桂林市/雁山区"},
    {"id": 15, "name": "城市露营地", "lon": 110.352728, "lat": 25.259081, "x": 1398.41, "y": 2723.72, "address": "桂林市七星区湖塘路", "type": "城市营地", "price": "价格面议", "rating": "", "description": "类型：城市营地 | 价格：价格面议 | 营业时间：全天 | 电话：19172105319 | 活动：城市露营, 周末休闲, 亲子活动, 户外烧烤, 朋友聚会 | 设施：帐篷区, 休闲区, 卫生间, 停车场 | 提示：位于市区，交通便利, 适合周末短途出游, 城市露营体验, 无需长途跋涉", "folder": "桂林市/七星区"},
    {"id": 16, "name": "望野露营地", "lon": 110.374974, "lat": 25.264573, "x": 1433.97, "y": 2713.43, "address": "桂林市七星区朝阳乡司公村停车场旁", "type": "乡村营地", "price": "价格面议", "rating": "", "description": "类型：乡村营地 | 价格：价格面议 | 营业时间：全天 | 活动：乡村露营, 田园观光, 放松休闲, 亲子活动, 户外烧烤 | 设施：帐篷区, 休闲区, 卫生间, 停车场 | 提示：周边田园风光优美, 环境宁静, 适合放松身心, 体验乡村生活", "folder": "桂林市/七星区"},
    {"id": 17, "name": "七星收费站汽车露营地", "lon": 110.350597, "lat": 25.286325, "x": 1394.28, "y": 2676.87, "address": "广西壮族自治区桂林市七星区尧山线互通桥与金鸡路交叉口东南340米", "type": "汽车营地", "price": "价格面议", "rating": "", "description": "类型：汽车营地 | 价格：价格面议 | 营业时间：全天 | 电话：13977353135 | 活动：汽车露营, 自驾休息, 过夜停车, 户外烧烤 | 设施：汽车营位, 卫生间, 停车场 | 提示：交通便利, 适合自驾游客休息, 设施完善, 可过夜停车", "folder": "桂林市/七星区"},
    {"id": 18, "name": "旗山背网红露营地", "lon": 110.209298, "lat": 25.146255, "x": 1171.1, "y": 2923.4, "address": "桂林市临桂区桂林绕城高速附近旗山背", "type": "网红营地", "price": "价格面议", "rating": "", "description": "类型：网红营地 | 价格：价格面议 | 营业时间：全天 | 活动：网红打卡, 拍照摄影, 朋友聚会, 户外烧烤, 日落观赏 | 设施：帐篷区, 拍照打卡点, 卫生间, 停车场 | 提示：网红打卡热门地点, 风景优美适合拍照, 适合年轻人聚会, 建议傍晚前往", "folder": "桂林市/临桂区"},
    {"id": 19, "name": "爱酷客汽车自行车营地", "lon": 110.305095, "lat": 25.123013, "x": 1325.47, "y": 2959.86, "address": "广西壮族自治区桂林市雁山区良丰路桂林旅游学院雁山校区西南侧约220米", "type": "汽车营地", "price": "价格面议", "rating": "", "description": "类型：汽车营地 | 价格：价格面议 | 营业时间：全天 | 活动：汽车露营, 自行车骑行, 运动休闲, 户外烧烤, 朋友聚会 | 设施：汽车营位, 自行车停放, 卫生间, 停车场 | 提示：靠近桂林旅游学院, 适合汽车和自行车爱好者, 提供自行车服务设施, 运动休闲好去处", "folder": "桂林市/雁山区"},
    {"id": 20, "name": "临桂六塘收费站房车汽车露营地", "lon": 110.292622, "lat": 24.984189, "x": 1309.05, "y": 3199.44, "address": "广西壮族自治区桂林市临桂区六塘镇临桂六塘收费站出口", "type": "房车营地", "price": "价格面议", "rating": "", "description": "类型：房车营地 | 价格：价格面议 | 营业时间：全天 | 活动：房车露营, 汽车露营, 自驾休息, 过夜停车 | 设施：房车营位, 汽车营位, 卫生间, 停车场 | 提示：位于收费站出口，交通便利, 适合房车和自驾游客, 提供房车和汽车营位, 设施完善", "folder": "桂林市/临桂区"},
    {"id": 21, "name": "枫木根露营地（兰田一棵树）", "lon": 110.218501, "lat": 25.613267, "x": 1173.78, "y": 2118.66, "address": "桂林市灵川县兰田瑶族乡枫木根村一一四县道（导航'兰田一棵树'）", "type": "网红营地", "price": "免费", "rating": "", "description": "类型：网红营地 | 价格：免费 | 营业时间：全天 | 活动：草坪露营, 网红打卡, 拍照摄影, 观日落, 牛羊互动, 周边廿四田石拱桥玩水 | 设施：帐篷区, 停车场, 自然草坪 | 提示：从桂林市区自驾约1.5小时, 全程铺装路面，小车摩托车可开, 免费露营, 拍照极出片, 距离8.8公里有廿四田石拱桥可玩水, 建议早8点前出发避开人潮", "folder": "桂林市/灵川县"},
    {"id": 22, "name": "潜经村露营地", "lon": 110.436578, "lat": 25.107444, "x": 1536.93, "y": 2981.78, "address": "桂林市雁山区潜经村漓江边（导航'潜经村'）", "type": "江边营地", "price": "停车10元+垃圾费5元", "rating": "", "description": "类型：江边营地 | 价格：停车10元+垃圾费5元 | 营业时间：全天 | 活动：漓江观景, 帐篷露营, 过夜露营, 户外烧烤, 观羊群, 江边休闲 | 设施：帐篷区, 停车场, 卫生间 | 提示：停车10元、垃圾费5元、上厕所1元, 车不能开到河边，阿姨帮忙拉东西, 可以明火但不能着地, 可以过夜露营, 下午傍晚有羊群, 注意不能下水游泳", "folder": "桂林市/雁山区"},
    {"id": 23, "name": "猫儿山山顶露营地", "lon": 110.423871, "lat": 25.86984, "x": 1496.78, "y": 1669.07, "address": "广西壮族自治区桂林市兴安县华江乡高寨村猫儿山景区", "type": "高山营地", "price": "景区门票+营地费", "rating": "", "description": "类型：高山营地 | 价格：景区门票+营地费 | 营业时间：全天 | 电话：(0773)6090323 | 活动：高山露营, 观日出, 观云海, 星空观测, 徒步登山, 摄影采风 | 设施：帐篷区, 卫生间, 停车场 | 提示：需购买景区门票, 海拔较高，注意防寒, 观日出云海绝佳, 适合户外爱好者, 建议提前预约", "folder": "桂林市/资源县"},
    {"id": 24, "name": "石象角露营地", "lon": 110.412634, "lat": 25.46863, "x": 1489.13, "y": 2360.55, "address": "广西壮族自治区桂林市灵川县三街镇石象角漓江边", "type": "江边营地", "price": "收费营地（约150元）", "rating": "", "description": "类型：江边营地 | 价格：收费营地（约150元） | 营业时间：全天 | 活动：漓江观景, 帐篷露营, 家庭露营, 团建活动, 江边烧烤 | 设施：帐篷区, 卫生间, 停车场 | 提示：漓江边知名露营地点, 风景优美, 适合家庭露营, 部分时段可能收取露营场地费约150元", "folder": "桂林市/灵川县"},
    {"id": 25, "name": "金钟山露营区", "lon": 110.144449, "lat": 24.994238, "x": 1070.95, "y": 3187.66, "address": "桂林市永福县金钟山景区", "type": "景区营地", "price": "景区门票+营地费", "rating": "", "description": "类型：景区营地 | 价格：景区门票+营地费 | 营业时间：景区营业时间 | 电话：(0773)3231999 | 活动：景区露营, 金钟山游览, 溶洞探险, 登山徒步, 亲子活动 | 设施：帐篷区, 卫生间, 停车场, 景区设施 | 提示：需购买景区门票, 景区配套露营区, 设施完善, 可同时游览景区", "folder": "桂林市/永福县"},
    {"id": 26, "name": "金鸡河水库露营地", "lon": 110.105123, "lat": 24.958944, "x": 1008.74, "y": 3249.91, "address": "桂林市永福县罗锦镇金鸡河水库（导航'河陂头'）", "type": "水库营地", "price": "停车费20元/辆", "rating": "", "description": "类型：水库营地 | 价格：停车费20元/辆 | 营业时间：全天 | 活动：草原露营, 观星, 日落观赏, 户外烧烤, 垂钓, 亲子活动 | 设施：帐篷区, 草坪, 停车场 | 提示：导航定位'河陂头', 从桂林市区自驾约1.5小时, 停车费约20元/辆, 建议早8点前出发避开人潮, 凌晨可观银河, 注意防虫防寒, 无痕露营保护环境", "folder": "桂林市/永福县"},
    {"id": 27, "name": "溪林湾印舍露营基地", "lon": 110.24526, "lat": 25.70083, "x": 1214.46, "y": 1966.84, "address": "桂林市灵川县九屋镇西岭村77号西岭生态度假景区内", "type": "度假营地", "price": "10元/人", "rating": "", "description": "类型：度假营地 | 价格：10元/人 | 营业时间：全天 | 电话：13877315468 | 活动：度假露营, 西岭景区游览, 溪流玩水, 户外烧烤, 亲子活动, 休闲度假 | 设施：帐篷区, 住宿, 卫生间, 停车场, 餐饮 | 提示：位于西岭生态度假景区内, 环境优美设施完善, 提供露营和住宿服务", "folder": "桂林市/灵川县"},
    {"id": 28, "name": "溪溪里星空露营基地", "lon": 110.507599, "lat": 24.737335, "x": 1660.51, "y": 3616.62, "address": "广西壮族自治区桂林市阳朔县阳普路100号", "type": "星空营地", "price": "价格面议", "rating": "", "description": "类型：星空营地 | 价格：价格面议 | 营业时间：全天 | 活动：星空观测, 天文摄影, 帐篷露营, 日出观赏, 自然风光摄影 | 设施：帐篷区, 观星平台, 卫生间, 停车场 | 提示：以星空观测为主题, 远离光污染, 适合天文爱好者, 凌晨观星最佳", "folder": "桂林市/阳朔县"},
    {"id": 29, "name": "林家榨露营地", "lon": 110.542391, "lat": 24.779662, "x": 1715.26, "y": 3542.42, "address": "桂林市阳朔县福利镇福利村林家榨", "type": "乡村营地", "price": "价格面议", "rating": "", "description": "类型：乡村营地 | 价格：价格面议 | 营业时间：全天 | 活动：乡村露营, 田园观光, 放松休闲, 乡村生活体验, 户外烧烤 | 设施：帐篷区, 卫生间, 停车场 | 提示：乡村风格露营地, 环境宁静, 适合放松身心, 体验乡村生活", "folder": "桂林市/阳朔县"},
    {"id": 30, "name": "不二露营", "lon": 110.441878, "lat": 24.780909, "x": 1553.89, "y": 3544.02, "address": "桂林市阳朔县白沙镇遇龙村遇龙河景区", "type": "综合营地", "price": "价格面议", "rating": "", "description": "类型：综合营地 | 价格：价格面议 | 营业时间：全天 | 活动：遇龙河漂流, 帐篷露营, 竹筏游, 骑行, 摄影采风, 亲子活动 | 设施：帐篷区, 卫生间, 停车场 | 提示：位于遇龙河景区内, 紧邻遇龙河, 风景优美, 可体验遇龙河漂流", "folder": "桂林市/阳朔县"},
    {"id": 31, "name": "九马画山露营地", "lon": 110.503321, "lat": 24.921931, "x": 1648.86, "y": 3298.82, "address": "桂林市阳朔县兴坪镇九马画山景区", "type": "景区营地", "price": "价格面议", "rating": "", "description": "类型：景区营地 | 价格：价格面议 | 营业时间：全天 | 活动：九马画山观光, 漓江观景, 帐篷露营, 摄影采风, 日出日落观赏 | 设施：帐篷区, 卫生间, 停车场 | 提示：漓江边知名露营地点, 可欣赏九马画山, 摄影爱好者天堂, 适合家庭露营", "folder": "桂林市/阳朔县"},
    {"id": 32, "name": "野肆咖啡露营", "lon": 110.488861, "lat": 24.733347, "x": 1630.54, "y": 3624.19, "address": "广西壮族自治区桂林市阳朔县G321广成线", "type": "咖啡营地", "price": "价格面议", "rating": "", "description": "类型：咖啡营地 | 价格：价格面议 | 营业时间：全天 | 电话：13977331693 | 活动：咖啡品鉴, 帐篷露营, 网红打卡, 朋友聚会, 户外休闲 | 设施：帐篷区, 咖啡厅, 卫生间, 停车场 | 提示：集咖啡与露营于一体, 特色营地, 适合年轻人打卡, 提供咖啡服务", "folder": "桂林市/阳朔县"},
    {"id": 33, "name": "暮野露营", "lon": 110.168078, "lat": 25.251568, "x": 1102.21, "y": 2743.54, "address": "桂林市临桂区平桂路与山水大道交叉路口往西约160米", "type": "城市营地", "price": "价格面议", "rating": "", "description": "类型：城市营地 | 价格：价格面议 | 营业时间：全天 | 活动：城市露营, 周末休闲, 亲子活动, 户外烧烤, 朋友聚会 | 设施：帐篷区, 卫生间, 停车场 | 提示：交通便利, 城市周边休闲, 适合周末短途出游, 环境优美", "folder": "桂林市/临桂区"},
    {"id": 34, "name": "拾光林谷·小树林果酱烧烤营地", "lon": 110.185087, "lat": 25.249358, "x": 1129.57, "y": 2746.71, "address": "桂林市临桂区公园北路与西城大道交叉口东80米", "type": "烧烤营地", "price": "价格面议", "rating": "", "description": "类型：烧烤营地 | 价格：价格面议 | 营业时间：全天 | 电话：15778012922 | 活动：特色烧烤, 帐篷露营, 朋友聚会, 家庭出游, 户外休闲 | 设施：帐篷区, 烧烤区, 卫生间, 停车场 | 提示：以烧烤为主题, 提供烧烤服务, 适合朋友聚会, 家庭出游好去处", "folder": "桂林市/临桂区"},
    {"id": 35, "name": "王家洲露营钓鱼休闲基地", "lon": 110.335309, "lat": 25.230539, "x": 1371.19, "y": 2773.53, "address": "桂林市雁山区漓江景区王家洲", "type": "休闲营地", "price": "价格面议", "rating": "", "description": "类型：休闲营地 | 价格：价格面议 | 营业时间：全天 | 活动：江边垂钓, 帐篷露营, 漓江观景, 户外烧烤, 休闲度假 | 设施：帐篷区, 钓鱼区, 卫生间, 停车场 | 提示：集露营和钓鱼于一体, 紧邻漓江, 适合钓鱼爱好者, 家庭出游好去处", "folder": "桂林市/雁山区"}
  ]
}
